City_ID,City,Lat,Lng,Max Temp,Humidity,Cloudiness,Wind Speed,Country,Date
0,sitka,57.0531,-135.33,60.69,82,100,3.44,US,1693047018
1,petropavlovsk-kamchatsky,53.0452,158.6483,55.99,100,75,2.24,RU,1693046721
2,grytviken,-54.2811,-36.5092,22.48,74,72,22.37,GS,1693047019
3,isafjordur,66.0755,-23.124,60.84,72,75,17.27,IS,1693047020
4,san ignacio,17.1561,-89.0714,75.34,100,75,4.61,BZ,1693047020
5,avarua,-21.2078,-159.775,77.05,88,40,13.8,CK,1693046892
6,la passe,45.5549,-0.8967,73.63,51,27,14.12,FR,1693047022
7,jamaame,0.0697,42.745,86.95,48,35,15.57,SO,1693047022
8,egilsstadir,65.2653,-14.3948,60.71,63,0,2.3,IS,1693047023
9,kargasok,59.0556,80.8572,61.65,60,46,8.01,RU,1693047024
10,suva,-18.1416,178.4415,67.48,100,75,2.3,FJ,1693047024
11,olinda,-8.0089,-34.8553,73.13,94,20,4.61,BR,1693047009
12,port elizabeth,-33.918,25.5701,59.09,76,40,31.07,ZA,1693047026
13,benguela,-12.5763,13.4055,76.89,70,55,11.05,AO,1693047026
14,tiksi,71.6872,128.8694,45.61,98,100,2.59,RU,1693047027
15,qaqortoq,60.7167,-46.0333,45.18,95,100,5.86,GL,1693047028
16,rongelap,11.1635,166.8941,82.42,71,100,14.58,MH,1693047028
17,waitangi,-43.9535,-176.5597,47.82,80,100,1.01,NZ,1693047029
18,albany,42.6001,-73.9662,68.05,94,49,4.63,US,1693047029
19,bredasdorp,-34.5322,20.0403,56.26,49,66,14.83,ZA,1693047030
20,flying fish cove,-10.4217,105.6791,76.68,83,40,12.66,CX,1693047031
21,iqaluit,63.7506,-68.5145,40.73,86,100,13.0,CA,1693046932
22,udachny,66.4167,112.4,75.45,33,6,10.29,RU,1693047032
23,amga,60.8953,131.9608,57.18,60,53,1.88,RU,1693047033
24,edinburgh of the seven seas,-37.0676,-12.3116,59.25,85,100,34.45,SH,1693047034
25,recani,31.2846,-4.2688,97.57,12,0,4.83,MA,1693047034
26,mil'kovo,55.6078,37.7956,63.91,67,100,3.49,RU,1693047035
27,pingdingshan,33.7385,113.3012,67.5,98,100,15.28,CN,1693047036
28,mansa,29.9833,75.3833,100.74,29,36,6.04,IN,1693047036
29,jayapura,-2.5333,140.7,76.39,87,42,2.08,ID,1693047037
30,olonkinbyen,70.9221,-8.7187,43.84,97,53,18.92,SJ,1693047038
31,tura,25.5198,90.2201,74.32,99,100,2.1,IN,1693047039
32,sakchu-up,40.3894,125.0467,70.84,81,100,2.28,KP,1693047040
33,queenstown,-31.8976,26.8753,48.78,38,93,23.98,ZA,1693047040
34,taruma,-22.7467,-50.5772,62.29,81,76,11.5,BR,1693047041
35,kapit,2.0167,112.9333,76.57,96,97,0.87,MY,1693047042
36,port-aux-francais,-49.35,70.2167,38.44,74,38,19.46,TF,1693047042
37,turtas,58.9417,69.1325,57.38,73,83,5.88,RU,1693047043
38,hawaiian paradise park,19.5933,-154.9731,71.89,91,100,4.61,US,1693047044
39,howard springs,-12.497,131.047,81.82,53,70,3.67,AU,1693047044
40,guiren,33.6697,118.1889,78.08,71,100,13.62,CN,1693047045
41,bairnsdale,-37.8333,147.6167,52.05,78,97,3.11,AU,1693047046
42,uthal,25.8072,66.6219,88.61,58,84,18.16,PK,1693047046
43,iskateley,67.6803,53.1512,46.96,75,100,12.28,RU,1693047047
44,segezha,63.7415,34.3222,60.76,56,83,6.06,RU,1693047048
45,silsbee,30.3491,-94.178,78.57,94,25,1.83,US,1693047048
46,kununurra,-15.7667,128.7333,82.38,16,2,6.91,AU,1693047049
47,bovalino,38.149,16.174,94.89,49,0,5.01,IT,1693047050
48,adamstown,-25.066,-130.1015,65.64,64,82,15.26,PN,1693047050
49,lingdong,46.5669,131.1453,62.49,94,58,3.18,CN,1693047051
50,kirakira,-10.4544,161.9205,77.7,84,97,11.61,SB,1693047052
51,ilulissat,69.2167,-51.1,50.02,53,75,17.27,GL,1693047052
52,port alfred,-33.5906,26.891,61.18,58,81,15.99,ZA,1693047053
53,las rosas,-32.4766,-61.5804,39.85,50,5,4.94,AR,1693047054
54,pisco,-13.7,-76.2167,66.25,82,100,2.3,PE,1693047054
55,jamestown,42.097,-79.2353,64.45,99,40,4.61,US,1693046773
56,codrington,-38.2667,141.9667,51.53,78,100,7.0,AU,1693047055
57,coquimbo,-29.9533,-71.3436,49.73,81,75,0.0,CL,1693047056
58,quellon,-43.1167,-73.6167,43.05,87,100,4.61,CL,1693047057
59,alice springs,-23.7,133.8833,60.35,23,0,6.91,AU,1693047058
60,'anat al qadimah,34.4659,41.9331,104.79,13,0,20.71,IQ,1693047058
61,west island,-12.1568,96.8225,80.58,74,40,16.11,CC,1693047059
62,blackmans bay,-43.0167,147.3167,44.53,83,100,1.77,AU,1693047060
63,nemuro,43.3236,145.575,68.02,97,65,13.4,JP,1693047060
64,rio grande,-32.035,-52.0986,43.95,70,9,10.0,BR,1693047061
65,puerto baquerizo moreno,-0.9,-89.6,72.77,83,37,9.17,EC,1693047062
66,margaret river,-33.95,115.0667,58.77,82,76,5.66,AU,1693047062
67,puerto natales,-51.7236,-72.4875,29.44,88,100,3.71,CL,1693047063
68,nigde,37.8333,34.75,81.55,14,0,11.25,TR,1693047065
69,bay city,43.5945,-83.8889,66.42,91,100,9.22,US,1693047065
70,ishigaki,24.3448,124.1572,82.53,83,20,3.44,JP,1693047066
71,prince rupert,54.3161,-130.3201,56.89,98,0,4.61,CA,1693047002
72,katabu,-4.9333,122.5167,76.75,74,9,7.76,ID,1693047068
73,zheleznogorsk-ilimskiy,56.5768,104.1217,72.25,54,8,2.48,RU,1693047069
74,naryn,41.4287,75.9911,64.54,48,100,6.46,KG,1693047069
75,wailua homesteads,22.0669,-159.378,79.59,84,40,14.97,US,1693047071
76,chonchi,-42.6128,-73.8092,33.01,96,30,2.82,CL,1693047071
77,santa ana,33.7456,-117.8678,69.85,95,0,0.0,US,1693047059
78,swakopmund,-22.6833,14.5333,56.98,84,13,4.0,NA,1693047073
79,tsiombe,-25.3,45.4833,92.01,24,0,4.16,MG,1693047073
80,richards bay,-28.783,32.0377,66.0,54,63,15.43,ZA,1693047074
81,asha,54.9973,57.2722,55.18,63,95,4.0,RU,1693047075
82,bandarbeyla,9.4942,50.8122,85.62,62,93,30.49,SO,1693047076
83,vikhorevka,56.1201,101.1636,76.59,52,0,3.69,RU,1693047077
84,zaozersk,69.4005,32.4476,56.07,64,100,9.73,RU,1693047077
85,dunedin,-45.8742,170.5036,45.81,74,100,5.99,NZ,1693046858
86,strathmore,51.0501,-113.3852,60.21,77,79,2.3,CA,1693047079
87,sisimiut,66.9395,-53.6735,42.33,93,100,21.9,GL,1693047080
88,kurchatov,51.6601,35.6521,77.97,43,98,6.2,RU,1693047081
89,zouerate,22.7187,-12.4521,99.14,19,62,19.77,MR,1693047081
90,saint augustine beach,29.8505,-81.2654,79.0,89,2,3.44,US,1693047082
91,dudinka,69.4058,86.1778,47.75,96,100,12.5,RU,1693047084
92,hengyang,26.8881,112.615,88.63,64,99,1.74,CN,1693047084
93,boundiali,9.5217,-6.4869,83.23,71,63,6.91,CI,1693047085
94,lago da pedra,-4.3333,-45.1667,78.17,83,57,5.17,BR,1693047086
95,vallenar,-28.5708,-70.7581,57.58,31,0,3.02,CL,1693047086
96,eceabat,40.1842,26.3574,87.76,45,0,23.02,TR,1693047087
97,katsuura,35.1333,140.3,79.16,83,13,8.08,JP,1693047088
98,hasaki,35.7333,140.8333,82.31,77,18,7.0,JP,1693047088
99,st. john's,47.5649,-52.7093,57.78,97,75,6.91,CA,1693046917
100,constantia,44.1833,28.65,90.7,59,0,12.15,RO,1693047090
101,bereeda,11.8704,51.0579,93.99,47,39,2.95,SO,1693047090
102,kenora,49.8167,-94.4337,52.77,93,75,4.61,CA,1693047091
103,bethel,41.3712,-73.414,71.96,89,100,0.0,US,1693046836
104,sweet home,44.3976,-122.7362,60.71,65,0,2.68,US,1693047092
105,happy valley-goose bay,53.3168,-60.3315,59.31,77,75,6.91,CA,1693047093
106,remire-montjoly,4.9167,-52.2667,75.24,100,0,0.0,GF,1693047094
107,anadyr,64.75,177.4833,36.1,93,20,6.71,RU,1693047094
108,thompson,55.7435,-97.8558,44.76,93,0,3.44,CA,1693047095
109,aasiaat,68.7098,-52.8699,38.14,82,100,5.32,GL,1693047095
110,monkey bay,-14.0728,34.9201,79.86,57,4,7.72,MW,1693047096
111,polyarnyy,69.1989,33.4478,54.21,69,100,9.66,RU,1693047097
112,vorgashor,67.5833,63.95,41.43,97,100,8.52,RU,1693047098
113,ambon,-3.6954,128.1814,81.88,95,94,19.06,ID,1693046988
114,tchintabaraden,15.8969,5.7985,92.8,38,29,10.83,NE,1693047099
115,kotlas,61.2611,46.6556,49.15,92,100,6.93,RU,1693047005
116,yellowknife,62.456,-114.3525,64.42,87,100,5.01,CA,1693046908
117,bangjun,39.9911,117.2628,71.83,81,100,4.25,CN,1693047101
118,badger,64.8,-147.5333,56.8,87,40,4.61,US,1693047101
119,chandbali,20.7833,86.7667,85.66,69,81,13.29,IN,1693047102
120,howrah,22.5892,88.3103,87.8,79,75,0.0,IN,1693047103
121,susuman,62.7833,148.1667,44.38,88,82,2.51,RU,1693047103
122,champerico,14.3,-91.9167,80.02,84,100,3.06,GT,1693047104
123,huarmey,-10.0681,-78.1522,66.07,88,91,8.16,PE,1693047105
124,hadibu,12.65,54.0333,82.78,74,37,19.84,YE,1693047105
125,alofi,-19.0595,-169.9187,71.49,83,85,13.8,NU,1693047106
126,pangoa,-12.1167,-73.0,73.11,76,98,2.17,PE,1693047107
127,sur,22.5667,59.5289,97.72,46,98,4.7,OM,1693047108
128,tazovsky,67.4667,78.7,56.05,54,99,10.96,RU,1693047108
129,natal,-5.795,-35.2094,75.42,88,0,4.61,BR,1693047109
130,hermanus,-34.4187,19.2345,56.8,61,77,11.27,ZA,1693047110
131,borskoye,53.0333,51.7167,64.18,35,83,9.24,RU,1693047111
132,tubarao,-28.4667,-49.0069,49.37,70,0,1.97,BR,1693046826
133,huilong,31.8111,121.655,83.93,77,61,11.43,CN,1693047112
134,carnarvon,-24.8667,113.6333,70.29,62,0,10.18,AU,1693047113
135,atafu village,-8.5421,-172.5159,82.15,80,100,10.96,TK,1693047114
136,mpulungu,-8.7623,31.1141,85.73,39,6,7.7,ZM,1693047115
137,bardai,11.65,7.2333,84.74,57,66,8.03,NG,1693047115
138,beberibe,-4.1797,-38.1306,79.38,71,65,9.53,BR,1693047116
139,kone,-21.0595,164.8658,65.08,77,76,4.92,NC,1693047117
140,lerwick,60.1545,-1.1494,59.0,91,87,9.35,GB,1693047117
141,bilibino,68.0546,166.4372,44.82,57,18,2.06,RU,1693047118
142,nagqu,31.5,92.0,53.1,62,76,6.53,CN,1693047119
143,college,64.8569,-147.8028,56.89,83,100,4.61,US,1693046988
144,grand-lahou,5.1367,-5.0242,79.79,79,52,10.0,CI,1693047120
145,karatuzskoye,53.6072,92.8667,71.53,66,85,6.2,RU,1693047121
146,papatowai,-46.5619,169.4708,43.29,93,99,13.76,NZ,1693047121
147,visby,57.6409,18.296,73.04,94,75,2.3,SE,1693047122
148,hotan,37.0997,79.9269,80.87,31,87,12.39,CN,1693047123
149,nizhneudinsk,54.9076,99.0276,74.64,60,79,7.96,RU,1693047123
150,fale old settlement,-9.3852,-171.2468,81.93,79,100,10.42,TK,1693047124
151,yuzhno-kurilsk,44.0306,145.8556,68.63,98,48,12.53,RU,1693047125
152,pekanbaru,0.5333,101.45,80.92,89,40,6.91,ID,1693047126
153,hithadhoo,-0.6,73.0833,83.25,74,10,5.7,MV,1693047127
154,lihue,21.9789,-159.3672,80.19,78,40,14.97,US,1693047127
155,klyuchi,52.2667,79.1667,72.32,34,93,4.88,RU,1693047128
156,holualoa,19.6228,-155.9522,71.44,86,75,13.8,US,1693047129
157,talnakh,69.4865,88.3972,56.88,94,91,14.36,RU,1693047130
158,solwezi,-12.1688,26.3894,92.39,10,76,3.96,ZM,1693047130
159,ariyalur,11.1333,79.0833,98.78,33,100,7.94,IN,1693047131
160,luderitz,-26.6481,15.1594,67.84,36,0,21.45,NA,1693047132
161,hamilton,39.1834,-84.5333,74.77,93,100,5.75,US,1693047132
162,ayabaca,-4.6398,-79.7149,43.39,75,29,5.3,PE,1693047133
163,ribeira grande,38.5167,-28.7,73.8,83,75,20.71,PT,1693047134
164,quarteira,37.0695,-8.1006,91.17,31,0,9.22,PT,1693047134
165,al kharijah,25.4514,30.5464,108.09,12,1,29.64,EG,1693047135
166,sao vicente,-23.9631,-46.3919,64.58,26,100,7.78,BR,1693047136
167,vilyuchinsk,52.9306,158.4028,57.47,83,100,7.56,RU,1693047136
168,khandyga,62.6667,135.6,53.76,70,67,1.34,RU,1693047137
169,sretensk,52.2453,117.7093,66.06,50,74,2.1,RU,1693047138
170,dwarka,22.2394,68.9678,82.87,72,100,19.69,IN,1693047138
171,casper,42.8666,-106.3131,53.73,89,0,1.99,US,1693047139
172,stanley,54.868,-1.6985,64.27,80,20,3.44,GB,1693047139
173,maiurno,13.4167,33.6667,95.38,39,98,12.21,SD,1693047140
174,sinabang,2.4803,96.3801,76.26,87,100,4.85,ID,1693047141
175,tommot,58.9564,126.2925,53.71,73,43,1.1,RU,1693047141
176,broken hill,-31.95,141.4333,63.36,31,0,5.93,AU,1693047142
177,punta arenas,-53.15,-70.9167,38.17,72,100,15.43,CL,1693047037
178,invercargill,-46.4,168.35,44.02,91,98,11.01,NZ,1693047042
179,novokayakent,42.3937,47.9861,78.66,46,62,3.24,RU,1693047144
180,kolo,52.2002,18.6387,71.82,77,94,9.69,PL,1693047145
181,hinton,53.4001,-117.5857,52.41,76,98,4.9,CA,1693047145
182,port blair,11.6667,92.75,86.04,74,40,11.5,IN,1693047146
183,minas de marcona,-15.2119,-75.1103,52.2,90,53,10.85,PE,1693047147
184,longyearbyen,78.2186,15.6401,48.04,81,75,14.97,SJ,1693047147
185,xiamen,24.4798,118.0819,86.05,79,75,8.95,CN,1693047148
186,kodiak,57.79,-152.4072,60.31,88,100,11.5,US,1693046874
187,whitehorse,60.7161,-135.0538,55.31,71,20,8.05,CA,1693047149
188,inarajan village,13.2736,144.7484,82.4,90,90,23.0,GU,1693047150
189,samana,19.2056,-69.3369,76.19,92,18,3.94,DO,1693047150
190,chibougamau,49.9168,-74.3659,51.42,93,100,12.66,CA,1693047151
191,kirensk,57.7853,108.1119,71.64,64,9,2.73,RU,1693047152
192,puerto ayora,-0.7393,-90.3518,74.55,96,26,5.01,EC,1693047152
193,kavaratti,10.5669,72.642,82.38,75,100,9.28,IN,1693047153
194,el bauga,18.262,33.9081,108.64,18,72,10.07,SD,1693047154
195,bridgewater,44.3835,-64.5155,67.68,90,86,20.71,CA,1693047154
196,nabire,-3.3667,135.4833,77.94,90,100,3.58,ID,1693046957
197,ascension,30.2169,-90.9001,82.09,96,0,0.0,US,1693047156
198,san ignacio de velasco,-16.3667,-60.95,72.64,53,88,9.1,BO,1693047157
199,hovd,48.0056,91.6419,79.39,19,2,9.51,MN,1693047158
200,okhotsk,59.3833,143.3,58.01,74,43,6.78,RU,1693047158
201,jean-rabel,19.8533,-73.1917,79.75,83,16,2.82,HT,1693047159
202,kapa'a,22.0752,-159.319,80.92,84,40,14.97,US,1693047160
203,ushuaia,-54.8,-68.3,35.26,87,20,8.05,AR,1693046892
204,ha'il,27.5219,41.6907,107.62,9,0,4.61,SA,1693047162
205,farmington,36.7281,-108.2187,66.88,82,0,8.05,US,1693047163
206,miquelon,47.0975,-56.3814,60.8,62,62,9.6,PM,1693047163
207,bel ombre,-4.6167,55.4167,85.84,70,20,14.97,SC,1693047164
208,kegums,56.7451,24.7244,68.34,95,100,5.57,LV,1693047165
209,taoudenni,22.6783,-3.9836,107.73,11,0,11.86,ML,1693047165
210,karukh,34.4811,62.5863,87.13,16,0,21.61,AF,1693047166
211,kasongo,-4.45,26.6667,98.47,28,70,3.91,CD,1693047167
212,kambove,-10.8764,26.5969,91.33,15,68,4.41,CD,1693047167
213,borkum,53.5809,6.6915,67.95,69,48,16.2,DE,1693047168
214,urumqi,43.801,87.6005,94.15,14,0,15.66,CN,1693047169
215,tucupita,9.0622,-62.051,74.37,95,47,2.04,VE,1693047169
216,tangalle,6.024,80.7911,89.76,68,40,15.26,LK,1693047170
217,mitu,1.1983,-70.1733,71.56,92,7,0.34,CO,1693047171
218,chipata,-13.6333,32.65,92.8,17,8,2.37,ZM,1693047171
219,piacabucu,-10.4056,-36.4344,77.09,75,50,10.54,BR,1693047172
220,lompoc,34.6391,-120.4579,62.53,87,100,11.99,US,1693047172
221,nguigmi,14.2495,13.1092,93.92,39,100,3.67,NE,1693047173
222,lebu,-37.6167,-73.65,41.25,81,4,3.83,CL,1693047174
223,saudarkrokur,65.7461,-19.6394,63.03,72,100,19.35,IS,1693047175
224,tenno,39.9,139.9667,85.21,82,24,7.43,JP,1693047175
225,inirida,3.8653,-67.9239,72.7,97,20,1.21,CO,1693046928
226,winkler,49.1817,-97.941,53.56,93,0,1.14,CA,1693047147
227,georgetown,5.4112,100.3354,82.33,77,20,4.61,MY,1693047128
228,itoman,26.1247,127.6694,82.42,88,40,4.61,JP,1693047178
229,svetlyy,54.675,20.1347,78.85,72,100,8.55,RU,1693047179
230,malanje,-9.5402,16.341,90.75,22,85,4.25,AO,1693047180
231,turpan,42.9333,89.1667,104.85,9,0,5.66,CN,1693047181
232,kasempa,-13.4584,25.8338,95.16,7,76,3.91,ZM,1693047182
233,cabo san lucas,22.8909,-109.9124,83.61,84,31,1.01,MX,1693047166
234,mount isa,-20.7333,139.5,64.17,36,0,8.05,AU,1693047183
235,crane,31.3974,-102.3501,80.15,54,60,2.84,US,1693047184
236,kyabe,9.4515,18.9449,86.54,69,94,3.8,TD,1693047184
237,mount pearl,47.5166,-52.7813,56.95,97,75,6.91,CA,1693047185
238,ust-nera,64.5667,143.2,47.66,69,77,1.88,RU,1693047186
239,fort st. john,56.2499,-120.8529,58.89,67,0,10.36,CA,1693047187
240,panjab,34.388,67.0233,73.29,13,3,8.28,AF,1693047187
241,merrill,45.1805,-89.6835,62.55,98,0,3.44,US,1693047188
242,ghanzi,-21.5667,21.7833,73.17,13,13,16.13,BW,1693047188
243,wanning,18.8003,110.3967,84.94,76,100,11.05,CN,1693047189
244,saipan,15.1355,145.701,81.3,100,40,5.99,MP,1693047190
245,hakui,36.8833,136.7833,82.26,87,29,6.04,JP,1693047191
246,port saint john's,-31.6229,29.5448,68.0,28,1,22.64,ZA,1693047191
247,la ronge,55.1001,-105.2842,55.65,88,0,6.91,CA,1693047192
248,vernon,50.2581,-119.2691,62.13,68,38,2.3,CA,1693047193
249,ialibu,-6.2821,143.9935,57.42,100,100,1.43,PG,1693047194
250,vila franca do campo,37.7167,-25.4333,75.61,75,27,14.25,PT,1693047194
251,port lincoln,-34.7333,135.8667,53.33,75,35,9.6,AU,1693047195
252,touros,-5.1989,-35.4608,79.29,75,67,9.82,BR,1693047196
253,chernomorskoye,45.5039,32.6997,79.83,44,0,9.8,UA,1693047197
254,selfoss,63.9331,-20.9971,56.05,98,100,15.32,IS,1693047197
255,petawawa,45.9001,-77.3328,62.19,93,100,11.5,CA,1693047198
256,puerto carreno,6.189,-67.4859,77.25,84,78,1.97,CO,1693047199
257,nuriootpa,-34.4833,139.0,50.38,94,0,3.22,AU,1693047199
258,bodo,67.28,14.405,69.46,57,0,12.66,NO,1693047200
259,levelland,33.5873,-102.378,72.95,46,5,8.9,US,1693047103
260,porto novo,6.4965,2.6036,85.77,63,73,11.23,BJ,1693047201
261,popondetta,-8.7537,148.2534,72.41,96,100,4.03,PG,1693047202
262,kapuskasing,49.4169,-82.4331,44.69,87,100,3.44,CA,1693047203
263,guider,9.9342,13.9486,92.16,45,98,7.4,CM,1693047203
264,utrik,11.2278,169.8474,82.87,79,100,13.42,MH,1693047204
265,morococha,-11.5997,-76.1411,34.63,91,5,2.59,PE,1693047205
266,slavyanka,42.8633,131.3847,69.35,87,100,6.85,RU,1693047206
267,nema,57.5067,50.5011,55.56,71,100,8.66,RU,1693047206
268,indramayu,-6.3264,108.32,81.54,75,15,10.85,ID,1693047207
269,lorengau,-2.0226,147.2712,80.37,85,28,11.61,PG,1693047208
270,fort bragg,35.139,-79.006,76.73,93,100,6.91,US,1693047209
271,rosetta,31.4044,30.4164,86.99,57,0,14.29,EG,1693047209
272,isangel,-19.55,169.2667,67.8,68,7,13.96,VU,1693047210
273,fukuecho,32.6881,128.8419,80.96,74,0,5.75,JP,1693047211
274,enewetak,11.3474,162.3373,79.57,85,100,17.13,MH,1693047211
275,uliastay,47.7417,96.8444,67.96,40,76,2.73,MN,1693047212
276,mount pleasant,32.7941,-79.8626,79.0,97,0,0.0,US,1693047213
277,mount gambier,-37.8333,140.7667,49.1,81,81,7.43,AU,1693047214
278,aykhal,66.0,111.5,69.42,46,0,11.12,RU,1693047215
279,baise city,23.8997,106.6133,82.44,91,100,3.6,CN,1693047215
280,lubang,13.8584,120.124,81.88,82,100,21.14,PH,1693047216
281,puerto penasco,31.3167,-113.5333,89.46,56,5,4.52,MX,1693047217
282,sandnessjoen,66.0217,12.6316,68.52,64,11,5.35,NO,1693047217
283,margate,51.3813,1.3862,69.69,61,22,8.99,GB,1693047218
284,lincheng,19.9078,109.6858,84.56,80,83,3.29,CN,1693047219
285,alto araguaia,-17.3147,-53.2153,77.67,39,47,1.77,BR,1693047220
286,shingu,33.7333,135.9833,77.74,91,7,4.32,JP,1693047220
287,nikolayevsk-on-amure,53.1406,140.73,52.52,69,100,2.62,RU,1693047221
288,puerto deseado,-47.7503,-65.8938,37.72,60,0,11.72,AR,1693047222
289,ketchikan,55.3422,-131.6461,64.87,68,0,8.05,US,1693047222
290,maslyanino,54.3436,84.2111,68.67,46,80,3.8,RU,1693047223
291,matthew town,20.95,-73.6667,81.95,77,28,3.85,BS,1693047224
292,tezu,27.9167,96.1667,75.56,98,100,2.44,IN,1693047224
293,omaruru,-21.4333,15.9333,81.45,5,5,2.21,NA,1693047225
294,mejit,10.2753,170.8646,82.78,80,100,14.5,MH,1693047226
295,saint-philippe,-21.3585,55.7679,78.39,75,34,16.89,RE,1693047226
296,augusto correa,-1.0217,-46.635,82.89,71,7,6.11,BR,1693047227
297,nenjiang,49.1833,125.2167,60.93,72,100,4.05,CN,1693047227
298,northam,51.0333,-4.2167,61.61,82,89,12.68,GB,1693047228
299,salinopolis,-0.6136,-47.3561,81.95,74,4,8.93,BR,1693047230
300,forfar,56.6431,-2.8903,62.76,64,100,5.61,GB,1693047231
301,tolanaro,-25.0319,46.9987,80.67,57,20,21.85,MG,1693047231
302,biltine,14.5333,20.9167,99.66,27,92,9.04,TD,1693047232
303,nasiriyah,31.0521,46.261,114.53,6,0,23.33,IQ,1693047233
304,edirne,41.6772,26.556,95.79,22,0,12.17,TR,1693047233
305,zaragoza,41.6561,-0.8773,80.02,50,20,10.36,ES,1693047115
306,misratah,32.3754,15.0925,86.52,54,0,7.7,LY,1693047235
307,tambacounda,13.7539,-13.7586,82.45,89,75,6.91,SN,1693047235
308,udgir,18.3833,77.1167,82.96,62,93,11.77,IN,1693047236
309,nar'yan-mar,67.6713,53.087,47.03,75,100,12.73,RU,1693047236
310,afaahiti,-17.75,-149.2833,76.06,84,79,22.86,PF,1693047237
311,namibe,-15.1961,12.1522,69.55,71,57,10.76,AO,1693047238
312,altai,46.3722,96.2583,64.78,36,75,4.9,MN,1693047239
313,praia da vitoria,38.7333,-27.0667,76.75,88,40,18.63,PT,1693047239
314,mahina,-17.5065,-149.489,77.76,78,20,9.22,PF,1693047240
315,trairi,-3.2778,-39.2689,82.31,60,84,11.45,BR,1693047240
316,cockburn town,21.4612,-71.1419,82.36,74,40,6.91,TC,1693047241
317,harstad,68.799,16.5293,65.25,79,10,7.0,NO,1693047242
318,pidhorodne,48.5753,35.1068,86.59,26,38,2.86,UA,1693047243
319,la sarre,48.8002,-79.1996,39.47,96,6,7.99,CA,1693047243
320,tralee,52.2704,-9.7026,61.05,82,75,9.22,IE,1693047244
321,obock,12.25,43.0833,99.79,24,23,6.17,DJ,1693047245
322,lethbridge,49.7,-112.8186,59.49,77,0,5.75,CA,1693047246
323,bryne,58.7354,5.6477,62.87,81,75,2.3,NO,1693047247
324,faya-largeau,17.9257,19.1043,106.45,17,3,7.76,TD,1693047247
325,constitucion,-35.3333,-72.4167,44.17,79,22,5.88,CL,1693047248
326,anderson,34.5334,-82.6499,78.55,96,0,0.0,US,1693047079
327,al ghayzah,16.2079,52.176,85.1,75,53,14.29,YE,1693047249
328,christchurch,-43.5333,172.6333,51.48,82,23,5.75,NZ,1693047005
329,hammerfest,70.6634,23.6821,48.65,93,75,4.61,NO,1693047251
330,gummi,12.1436,5.1081,88.54,56,86,12.21,NG,1693047251
331,kill devil hills,36.0307,-75.676,79.99,84,100,12.66,US,1693047252
332,egersund,58.4513,5.9997,63.01,77,97,4.45,NO,1693047253
333,val-d'or,48.1002,-77.7828,48.29,87,100,14.97,CA,1693046964
334,naracoorte,-36.9579,140.7383,52.83,79,100,8.05,AU,1693047254
335,neka,36.6508,53.299,81.91,65,75,9.22,IR,1693047255
336,cradock,-32.1642,25.6192,49.96,37,51,16.11,ZA,1693047256
337,mata-utu,-13.2816,-176.1745,77.22,94,100,13.11,WF,1693047256
338,leh,34.1667,77.5833,68.59,27,98,7.36,IN,1693047156
339,sanga-sanga,5.0725,119.7853,82.62,75,27,10.02,PH,1693047257
340,jiayuguan,39.8167,98.3,80.22,18,20,8.43,CN,1693047258
341,haiku-pauwela,20.9219,-156.3051,75.04,78,8,10.0,US,1693047259
342,santa terezinha,-29.9002,-50.0904,49.96,67,4,7.7,BR,1693047260
343,tieli,46.95,128.05,60.98,94,74,4.97,CN,1693047260
344,ta`u,-14.2336,-169.5144,81.64,78,60,11.99,AS,1693047261
345,ad dabbah,18.05,30.95,109.24,10,95,6.8,SD,1693047262
346,betio village,1.358,172.9211,84.24,70,1,9.86,KI,1693047263
347,mancio lima,-7.6142,-72.8958,72.32,74,7,2.84,BR,1693047264
348,heihe,50.2441,127.4902,63.18,90,96,4.36,CN,1693047264
349,zabol,32.25,67.25,87.33,8,0,13.09,AF,1693047266
350,lluta,-16.0147,-72.0142,43.81,22,0,3.44,PE,1693047267
351,lospalos,-8.5186,127.0025,70.3,78,95,9.48,TL,1693047268
352,arraial do cabo,-22.9661,-42.0278,67.86,83,75,14.97,BR,1693047022
353,djibo,14.1022,-1.6306,82.31,67,98,15.37,BF,1693047269
354,nogliki,51.8333,143.1667,52.32,97,100,12.82,RU,1693047269
355,puerto quijarro,-17.7833,-57.7667,73.0,63,6,6.11,BO,1693047270
356,port douglas,-16.4833,145.4667,70.45,78,34,14.07,AU,1693047142
357,uray,60.1247,64.7758,56.23,60,99,7.47,RU,1693047271
358,rio negrinho,-26.2544,-49.5183,45.95,96,97,2.98,BR,1693047272
359,san patricio,28.017,-97.5169,84.06,85,3,1.03,US,1693047273
360,vila velha,-20.3297,-40.2925,75.15,89,75,11.99,BR,1693047273
361,saint-pierre,-21.3393,55.4781,78.57,57,20,9.22,RE,1693047274
362,dassa-zoume,7.75,2.1833,82.27,73,98,5.88,BJ,1693047275
363,vicam,27.6333,-110.2833,85.46,61,90,2.95,MX,1693047275
364,havre,49.5833,0.3333,67.33,77,100,14.97,FR,1693047276
365,port mathurin,-19.6833,63.4167,73.17,72,61,21.27,MU,1693047277
366,robore,-18.3333,-59.75,70.45,52,49,5.5,BO,1693047277
367,luanda,-8.8368,13.2343,78.8,65,75,3.44,AO,1693047063
368,ancud,-41.8697,-73.8203,35.83,86,11,5.93,CL,1693047279
369,bakchar,57.0186,82.0711,65.48,52,39,3.98,RU,1693047279
370,chiplun,17.5333,73.5167,84.16,72,59,8.86,IN,1693047280
371,protaras,35.0125,34.0583,92.98,79,0,10.69,CY,1693047281
372,palikir - national government center,6.9248,158.1611,75.94,100,100,4.61,FM,1693047281
373,priargunsk,50.3691,119.1012,64.31,49,67,2.13,RU,1693047282
374,zwedru,6.0667,-8.1281,78.85,88,96,4.61,LR,1693047283
375,aripuana,-9.1667,-60.6333,75.49,77,55,1.81,BR,1693047182
376,fisterra,42.9049,-9.2629,69.03,75,14,12.3,ES,1693047284
377,mandalgovi,45.7625,106.2708,70.65,34,83,3.8,MN,1693047285
378,zhangye,38.9342,100.4517,77.88,25,92,13.13,CN,1693047285
379,guerrero negro,27.9769,-114.0611,67.82,85,23,9.01,MX,1693047286
380,antsiranana,-12.2787,49.2917,84.96,51,40,20.71,MG,1693047286
381,duyun,26.2667,107.5167,75.27,94,98,5.14,CN,1693047287
382,rusape,-18.5278,32.1284,89.74,8,5,7.85,ZW,1693047288
383,laguna,38.421,-121.4238,67.32,82,0,4.61,US,1693047288
384,ilhabela,-23.7781,-45.3581,64.53,92,100,7.83,BR,1693047289
385,tabou,4.423,-7.3528,78.37,83,100,8.84,CI,1693047290
386,sinop,41.7711,34.8709,81.73,37,0,13.33,TR,1693047290
387,illizi,26.4833,8.4667,102.0,12,54,1.54,DZ,1693047291
388,mili,6.0815,171.735,83.01,77,47,11.72,MH,1693047292
389,sarina,-21.4333,149.2167,66.61,85,2,7.76,AU,1693047294
390,ulladulla,-35.35,150.4667,54.54,80,32,3.11,AU,1693047294
391,kokopo,-4.352,152.2633,76.59,90,94,13.73,PG,1693047295
392,jeju city,33.5097,126.5219,80.53,74,40,4.61,KR,1693047296
393,santa ana de yacuma,-13.75,-65.4333,76.95,83,20,3.44,BO,1693047296
394,castillos,-34.1667,-53.8333,40.53,75,0,5.19,UY,1693047297
395,nantucket,41.2835,-70.0995,73.45,79,100,18.41,US,1693047298
396,vodice,43.7608,15.7828,93.7,50,0,8.52,HR,1693047299
397,glace bay,46.1969,-59.957,65.98,95,75,6.91,CA,1693047003
398,mapastepec,15.4333,-92.9,76.15,89,80,3.85,MX,1693047300
399,uturoa,-16.7333,-151.4333,78.93,81,21,22.1,PF,1693047301
400,keflavik,64.0049,-22.5624,57.11,100,75,17.27,IS,1693047301
401,ebon,4.582,168.6964,83.28,77,73,14.67,MH,1693047302
402,paita,-5.0892,-81.1144,66.02,87,30,11.68,PE,1693047303
403,karratha,-20.7377,116.8463,74.25,56,0,9.51,AU,1693047303
404,artigas,-30.4,-56.4667,43.41,62,2,7.2,UY,1693047080
405,opuwo,-18.0607,13.84,85.6,8,0,4.09,NA,1693047305
406,bikenibeu village,1.3673,173.1241,84.16,84,75,4.61,KI,1693047306
407,road town,18.4167,-64.6167,84.29,76,100,12.5,VG,1693047306
408,igarka,67.4667,86.5833,51.64,85,100,9.31,RU,1693047307
409,cambridge,43.3601,-80.3127,63.28,94,75,2.3,CA,1693047160
410,filadelfia,39.9523,-75.1638,73.94,94,20,0.0,US,1693047148
411,sanawad,22.1833,76.0667,87.6,60,97,10.25,IN,1693047309
412,canutama,-6.5339,-64.3831,75.61,67,18,1.03,BR,1693047310
413,greenville,35.6127,-77.3663,77.16,93,100,8.05,US,1693047204
414,nuuk,64.1835,-51.7216,43.41,100,100,28.77,GL,1693047103
415,muynoq,43.7683,59.0214,83.75,26,49,13.44,UZ,1693047312
416,ikalamavony,-21.15,46.5833,81.18,32,33,4.59,MG,1693047312
417,talavera,15.6167,120.9333,76.77,90,100,9.62,PH,1693047313
418,concepcion,-36.827,-73.0498,37.2,100,0,5.75,CL,1693047314
419,severo-yeniseyskiy,60.3725,93.0408,53.78,93,100,8.05,RU,1693047314
420,horta,38.5333,-28.6333,73.04,87,75,20.71,PT,1693047315
421,kinablangan,7.6947,126.5503,81.55,86,50,5.53,PH,1693047315
422,kiama,-34.6833,150.8667,59.0,84,30,3.91,AU,1693047316
423,baiti,13.745,-14.7482,85.12,67,30,5.26,SN,1693047318
424,bokani,9.4333,5.2,83.98,75,65,6.42,NG,1693047318
425,lieksa,63.3167,30.0167,63.03,50,13,4.63,FI,1693047319
426,menongue,-14.6585,17.691,96.01,8,18,3.76,AO,1693047320
427,lhasa,29.65,91.1,68.27,47,72,0.98,CN,1693047321
428,saldanha,-33.0117,17.9442,60.85,58,85,12.64,ZA,1693047322
429,mersa matruh,31.3525,27.2453,88.0,62,0,13.8,EG,1693047258
430,namtsy,62.7161,129.6658,53.94,71,63,3.87,RU,1693047324
431,lyantor,61.6195,72.1555,56.73,69,100,14.18,RU,1693047325
432,estevan,49.1334,-102.9842,48.4,93,0,9.22,CA,1693047325
433,al bardiyah,31.7561,25.0865,88.81,47,0,14.65,LY,1693047326
434,san julian,21.0167,-102.1667,55.65,78,80,4.61,MX,1693047327
435,anna regina,7.2644,-58.5077,81.82,78,81,6.91,GY,1693047327
436,harbin,45.75,126.65,69.75,78,9,4.92,CN,1693047290
437,micheweni,-4.9667,39.8333,81.68,62,31,8.72,TZ,1693047329
438,joshimath,30.5667,79.5667,73.99,77,65,5.3,IN,1693047330
439,weno,7.4515,151.8468,84.2,76,51,9.89,FM,1693047330
440,al hufuf,25.3646,49.5653,115.14,6,0,13.8,SA,1693047331
441,vadso,70.0744,29.7487,58.08,67,0,10.36,NO,1693047332
442,kangding,30.0513,101.9603,55.24,99,100,2.48,CN,1693047332
443,kabo,7.6994,18.629,86.5,63,92,3.74,CF,1693047333
444,maues,-3.3836,-57.7186,77.9,60,2,3.33,BR,1693047334
445,kingston,17.997,-76.7936,81.55,93,75,6.91,JM,1693047324
446,vail,32.0479,-110.712,85.64,48,52,4.0,US,1693047335
447,santo antonio,-6.3106,-35.4789,78.01,73,1,6.6,BR,1693047336
448,tosontsengel,48.7567,98.2839,65.39,48,71,2.8,MN,1693047337
449,acarau,-2.8856,-40.12,80.04,72,69,11.81,BR,1693047338
450,santiago de cao,-7.9589,-79.2392,66.33,88,40,5.75,PE,1693047338
451,al burayqah,30.4062,19.5739,83.93,61,0,12.57,LY,1693047340
452,new norfolk,-42.7826,147.0587,45.72,74,100,0.87,AU,1693047340
453,kuta,-8.7233,115.1723,78.75,83,20,11.99,ID,1693047341
454,santo antonio do ica,-3.1022,-67.9397,73.2,91,14,2.75,BR,1693047342
455,bhabhua,25.05,83.6167,88.48,63,86,10.69,IN,1693047342
456,taulaga,-11.0553,-171.0883,82.27,77,100,8.21,AS,1693047343
457,ust'-uda,54.1742,103.0304,72.93,59,0,1.97,RU,1693047343
458,sao felix do xingu,-6.6447,-51.995,74.23,86,23,1.36,BR,1693047344
459,zeya,53.75,127.2667,57.36,62,100,4.23,RU,1693047345
460,datu piang,7.0283,124.5025,78.58,83,81,5.46,PH,1693047346
461,liuli,-11.0833,34.6333,82.6,53,34,7.14,TZ,1693047346
462,san luis de la loma,17.2706,-100.8939,76.5,86,62,3.53,MX,1693047347
463,kemijarvi,66.7131,27.4306,64.33,52,95,4.68,FI,1693047348
464,neiafu,-18.65,-173.9833,74.88,74,92,15.37,TO,1693047348
465,maceio,-9.6658,-35.7353,76.44,88,0,5.75,BR,1693047349
466,mandan,46.8267,-100.8896,54.95,94,75,6.91,US,1693047350
467,repatriacion,-25.5333,-55.95,50.92,51,13,8.9,PY,1693047350
468,dalandzadgad,43.5708,104.425,76.6,19,100,4.38,MN,1693047351
469,fort mcmurray,56.7268,-111.381,53.19,100,0,1.14,CA,1693047353
470,salah bey,35.8545,5.2905,91.81,18,0,11.59,DZ,1693047353
471,peniche,39.3558,-9.3811,76.28,64,45,18.19,PT,1693047355
472,novi pazar,43.1367,20.5122,93.6,25,1,2.84,RS,1693047355
473,winnemucca,40.973,-117.7357,69.85,52,20,4.61,US,1693047173
474,i-n-salah,27.1935,2.4607,106.16,13,36,18.88,DZ,1693047356
475,bamboo flat,11.7,92.7167,86.09,74,40,11.5,IN,1693047357
476,vredendal,-31.6683,18.5012,58.95,43,62,13.65,ZA,1693047358
477,el-tor,28.2364,33.6254,86.14,62,0,32.21,EG,1693047358
478,tadine,-21.55,167.8833,66.07,74,17,15.5,NC,1693047359
479,mugia,43.1041,-9.2179,69.17,72,25,10.13,ES,1693047360
480,sansanne-mango,10.3592,0.4708,84.33,71,90,7.47,TG,1693047360
481,lakatoro,-16.0999,167.4164,72.95,68,93,17.25,VU,1693047361
482,andkhoy,36.9529,65.1238,98.96,12,0,13.24,AF,1693047362
483,yigo village,13.5361,144.8886,79.92,88,20,13.8,GU,1693047362
484,rawlins,41.7911,-107.2387,50.36,87,0,6.91,US,1693047363
485,fortuna,40.5982,-124.1573,58.93,95,100,0.0,US,1693047364
486,urangan,-25.3,152.9,67.55,60,25,13.44,AU,1693047364
487,hami,42.8,93.45,92.46,13,1,2.8,CN,1693047365
488,moyynkum,44.2914,72.9469,95.11,15,71,8.14,KZ,1693047366
489,aleg,17.0481,-13.9209,94.06,41,19,13.18,MR,1693047367
490,mossel bay,-34.1831,22.146,55.33,58,85,22.24,ZA,1693047367
491,east london,-33.0153,27.9116,61.74,36,0,37.98,ZA,1693047368
492,atherton,53.5237,-2.4935,63.48,84,100,1.01,GB,1693047369
493,ciudad lazaro cardenas,17.9583,-102.2,75.79,89,25,4.79,MX,1693047370
494,sanctuary point,-35.1114,150.629,58.75,78,23,2.91,AU,1693047371
495,upata,8.0086,-62.3989,74.19,83,30,2.93,VE,1693047371
496,fremont,37.5483,-121.9886,64.26,87,100,5.01,US,1693047347
497,tofol,5.3248,163.0078,82.56,74,52,5.48,FM,1693047373
498,maragogi,-9.0122,-35.2225,76.78,78,54,5.64,BR,1693047374
499,amos,48.5669,-78.1162,41.76,96,47,8.43,CA,1693047374
500,prokop'yevsk,53.9059,86.719,67.77,64,87,6.87,RU,1693047375
501,tomohon,1.3346,124.8392,68.94,91,67,3.4,ID,1693047376
502,callao,-12.0667,-77.15,67.71,82,100,11.5,PE,1693047376
503,parauna,-16.9478,-50.4486,79.43,40,88,1.57,BR,1693047378
504,sao joao da barra,-21.6403,-41.0511,73.49,91,83,14.94,BR,1693047378
505,jinchang,38.4953,102.1739,73.13,29,60,10.49,CN,1693047379
506,west fargo,46.875,-96.9004,58.01,87,100,6.91,US,1693047380
507,pingdu,36.7844,119.9464,76.39,63,91,9.17,CN,1693047380
508,nizhnedevitsk,51.5419,38.3657,73.58,39,65,6.33,RU,1693047381
509,port sudan,19.6175,37.2164,95.76,50,67,14.03,SD,1693047382
510,beau vallon,-20.4189,57.6953,79.03,65,40,20.71,MU,1693047383
511,spas-demensk,54.4122,34.0226,60.08,94,100,3.42,RU,1693047383
512,iquitos,-3.7481,-73.2472,73.44,100,0,0.0,PE,1693047270
513,barcelos,41.5388,-8.6151,71.69,44,0,13.49,PT,1693047386
514,alpena,45.0617,-83.4327,63.1,96,100,12.66,US,1693047387
515,arno,60.1167,18.6333,64.78,87,100,8.95,SE,1693047388
516,tual,-5.6667,132.75,77.95,82,28,19.28,ID,1693047390
517,colonia,50.9333,6.95,73.06,52,20,11.5,DE,1693047123
518,fort morgan,40.2503,-103.8,61.45,94,100,4.61,US,1693047158
519,byron bay,-28.65,153.6167,55.71,73,5,6.38,AU,1693047393
520,bouarfa,32.53,-1.95,92.17,12,0,6.44,MA,1693047394
521,wajir,1.7471,40.0573,89.56,40,40,10.36,KE,1693047396
522,kohat,33.582,71.4493,93.27,35,1,4.88,PK,1693047397
523,ingeniero jacobacci,-41.3427,-69.5448,30.63,67,1,4.25,AR,1693047397
524,bonny,4.4522,7.1681,81.84,76,99,11.39,NG,1693047398
525,oakland,42.6667,-83.3999,64.96,98,40,4.61,US,1693047139
526,arteche,12.2645,125.4048,81.64,81,100,8.57,PH,1693047399
527,shache,38.4167,77.2406,79.56,32,92,20.36,CN,1693047400
528,las heras,-46.5419,-68.9359,32.97,75,1,16.91,AR,1693047400
529,chela,34.069,104.4619,59.63,67,100,4.25,CN,1693047402
530,homer,59.6425,-151.5483,60.67,88,100,4.61,US,1693047403
531,giado,31.9582,12.0203,90.59,19,0,5.1,LY,1693047404
532,bokakhat,26.6333,93.6,77.41,98,100,3.96,IN,1693047404
533,aswan,24.0934,32.907,106.9,11,0,11.5,EG,1693047258
534,westport,41.1415,-73.3579,72.95,92,40,1.01,US,1693047332
535,kingscliff,-28.2667,153.5667,62.73,77,16,8.05,AU,1693047406
536,dryden,49.7833,-92.7503,50.29,93,0,3.44,CA,1693047407
537,ekibastuz,51.6667,75.3667,75.45,25,60,10.76,KZ,1693047407
538,yei,4.095,30.6779,89.62,43,36,2.89,SS,1693047408
539,baie-comeau,49.2168,-68.1489,56.88,100,100,0.0,CA,1693047409
540,cooma,-36.2333,149.1333,45.52,94,98,3.56,AU,1693047193
541,tokar,18.4254,37.729,107.44,24,51,12.48,SD,1693047411
542,keelung,25.1283,121.7419,87.94,87,6,9.35,TW,1693047411
543,lubao,14.9167,120.55,85.71,85,100,10.13,PH,1693047412
544,west bay,19.3667,-81.4167,84.06,90,100,6.26,KY,1693047413
545,rabo de peixe,37.8,-25.5833,74.71,78,40,10.36,PT,1693047413
546,panino,51.6467,40.1346,71.85,33,59,7.14,RU,1693047414
547,neutraubling,48.9833,12.2,74.61,80,96,4.34,DE,1693047415
548,balykshi,47.0667,51.8667,75.2,23,0,17.9,KZ,1693047415
549,yelizovo,53.1873,158.3805,57.34,100,75,2.24,RU,1693047416
550,isla mujeres,21.2311,-86.731,77.16,87,100,9.42,MX,1693047417
551,maintirano,-18.0667,44.0167,81.39,59,0,17.16,MG,1693047418
552,bonawon,9.134,122.9193,79.95,87,84,9.01,PH,1693047418
553,sungai penuh,-2.0833,101.3833,68.41,97,85,0.76,ID,1693047419
554,lazaro cardenas,17.9583,-102.2,75.79,89,25,4.79,MX,1693047230
555,ribeira brava,32.65,-17.0667,87.71,70,91,2.84,PT,1693047420
556,jinja,0.439,33.2032,82.81,43,39,9.24,UG,1693047421
557,shuangyang,43.5242,125.6736,62.1,86,23,3.0,CN,1693047421
558,gunjur,13.2019,-16.7339,87.87,74,75,4.61,GM,1693047422
559,medina de rioseco,41.8833,-5.0441,75.43,41,2,6.73,ES,1693047423
560,olyokminsk,60.3736,120.4264,63.14,57,44,3.4,RU,1693047423
561,amol,36.4696,52.3507,80.67,62,99,10.8,IR,1693047424
562,kruisfontein,-34.0033,24.7314,56.88,66,57,27.02,ZA,1693047425
563,farafangana,-22.8167,47.8333,75.45,73,55,13.96,MG,1693047426
564,kuala terengganu,5.3302,103.1408,85.95,70,20,3.44,MY,1693047274
565,cestos city,5.46,-9.5828,79.45,82,100,9.95,LR,1693047427
566,larache,35.1932,-6.1557,82.33,64,87,11.23,MA,1693047428
567,nazyvayevsk,55.5698,71.3529,62.53,56,91,10.45,RU,1693047428
568,ulaangom,49.9811,92.0667,77.41,35,64,7.96,MN,1693047429
569,turka,49.1541,23.0297,85.8,46,31,6.85,UA,1693047430
570,gwanda,-20.9333,29.0,93.69,11,2,7.94,ZW,1693047431
571,cadale,2.7603,46.3222,81.16,71,39,22.79,SO,1693047432
572,kalkaman,51.9525,76.0211,75.45,25,69,10.25,KZ,1693047432
573,rikaze,29.25,88.8833,68.16,37,79,4.88,CN,1693047433
574,kasongo-lunda,-6.4667,16.8167,99.55,27,12,2.57,CD,1693047435
